{
  "schema_version": "1.6",
  "fips": "20129",
  "name": "Morton County",
  "state": "KS",
  "centroid": {
    "lat": 37.185249,
    "lon": -101.809516
  },
  "alerts": {
    "weather": [],
    "bank_robbery": [],
    "protest": [],
    "utility_outage": [],
    "transit_disruption": [],
    "wildfires": [
      {
        "title": "Sharpe Wildfire, Baca, Colorado",
        "id": "EONET_20162",
        "category": "wildfire",
        "date": "2026-05-17T15:37:00Z",
        "lat": 36.9968,
        "lon": -102.6244,
        "sources": [
          "https://irwin.doi.gov/observer/incidents/59686f08-125a-4dc7-91e9-af37f0968ccd"
        ],
        "distance_miles": 46.8,
        "threat_level": "Vicinity"
      },
      {
        "title": "Ballard Wildfire, Cimarron, Oklahoma",
        "id": "EONET_20164",
        "category": "wildfire",
        "date": "2026-05-15T17:32:00Z",
        "lat": 36.9572,
        "lon": -102.3725,
        "sources": [
          "https://irwin.doi.gov/observer/incidents/21470b85-a0a9-4dc0-bfb4-6723802bff2e"
        ],
        "distance_miles": 34.8,
        "threat_level": "Vicinity"
      },
      {
        "title": "Windmill Wildfire, Morton, Kansas",
        "id": "EONET_20178",
        "category": "wildfire",
        "date": "2026-05-15T08:55:00Z",
        "lat": 37.2194,
        "lon": -101.5922,
        "sources": [
          "https://irwin.doi.gov/observer/incidents/9910c36a-8258-4892-836e-30f7c76aea9d"
        ],
        "distance_miles": 12.2,
        "threat_level": "Immediate"
      },
      {
        "title": "51 Wildfire, Morton, Kansas",
        "id": "EONET_20155",
        "category": "wildfire",
        "date": "2026-05-14T18:17:00Z",
        "lat": 37.1806,
        "lon": -101.6552,
        "sources": [
          "https://irwin.doi.gov/observer/incidents/c2dcb1c7-e144-4031-9c3b-0d9d3438ab58"
        ],
        "distance_miles": 8.5,
        "threat_level": "Immediate"
      }
    ],
    "transit": [],
    "amtrak": [],
    "aviation": [],
    "fema": [],
    "disease": []
  },
  "alert_count": 4,
  "date": "2026-05-24",
  "generated_at": "2026-05-24T11:54:54.881646+00:00"
}
