{
  "schema_version": "1.6",
  "fips": "27009",
  "name": "Benton County",
  "state": "MN",
  "centroid": {
    "lat": 45.701225,
    "lon": -94.00144
  },
  "alerts": {
    "weather": [],
    "bank_robbery": [],
    "protest": [],
    "utility_outage": [],
    "transit_disruption": [],
    "wildfires": [
      {
        "title": "Prescribed Fire RX Infantry Platoon Battle Course, Morrison, Minnesota",
        "id": "EONET_21322",
        "category": "wildfire",
        "date": "2026-07-13T11:54:00Z",
        "lat": 46.2469,
        "lon": -94.3954,
        "sources": [
          "https://irwin.doi.gov/observer/incidents/2025-MNMNS-RX259231"
        ],
        "distance_miles": 42.2,
        "threat_level": "Vicinity"
      },
      {
        "title": "Prescribed Fire RX IPBC, Morrison, Minnesota",
        "id": "EONET_21323",
        "category": "wildfire",
        "date": "2026-07-13T11:09:00Z",
        "lat": 46.2465,
        "lon": -94.4,
        "sources": [
          "https://irwin.doi.gov/observer/incidents/2025-MNMNS-RX259215"
        ],
        "distance_miles": 42.3,
        "threat_level": "Vicinity"
      },
      {
        "title": "Prescribed Fire RX Center Range South, Morrison, Minnesota",
        "id": "EONET_21324",
        "category": "wildfire",
        "date": "2026-07-13T11:07:00Z",
        "lat": 46.162,
        "lon": -94.4453,
        "sources": [
          "https://irwin.doi.gov/observer/incidents/2025-MNMNS-RX259214"
        ],
        "distance_miles": 38.3,
        "threat_level": "Vicinity"
      },
      {
        "title": "Prescribed Fire RX Center Range North, Morrison, Minnesota",
        "id": "EONET_21339",
        "category": "wildfire",
        "date": "2026-07-09T15:40:00Z",
        "lat": 46.1696,
        "lon": -94.4447,
        "sources": [
          "https://irwin.doi.gov/observer/incidents/2025-MNMNS-RX259130"
        ],
        "distance_miles": 38.7,
        "threat_level": "Vicinity"
      },
      {
        "title": "Prescribed Fire RX Leach Impact Area, Morrison, Minnesota",
        "id": "EONET_21340",
        "category": "wildfire",
        "date": "2026-07-09T15:27:00Z",
        "lat": 46.2736,
        "lon": -94.3991,
        "sources": [
          "https://irwin.doi.gov/observer/incidents/2025-MNMNS-RX259122"
        ],
        "distance_miles": 43.9,
        "threat_level": "Vicinity"
      }
    ],
    "transit": [],
    "amtrak": [],
    "aviation": [],
    "fema": [],
    "disease": []
  },
  "alert_count": 5,
  "date": "2026-07-16",
  "generated_at": "2026-07-16T09:35:21.213079+00:00"
}
