{
  "schema_version": "1.7",
  "fips": "27151",
  "name": "Swift County",
  "state": "MN",
  "centroid": {
    "lat": 45.27581,
    "lon": -95.690124
  },
  "alerts": {
    "weather": [],
    "bank_robbery": [],
    "protest": [],
    "utility_outage": [],
    "transit_disruption": [],
    "wildfires": [
      {
        "title": "Prescribed Fire RX Chippewa Bottoms, Chippewa, Minnesota",
        "id": "EONET_21389",
        "category": "wildfire",
        "date": "2026-07-13T16:49:00Z",
        "lat": 45.1387,
        "lon": -96.0161,
        "sources": [
          "https://irwin.doi.gov/observer/incidents/2025-MNMNS-RX259328"
        ],
        "distance_miles": 18.5,
        "threat_level": "Vicinity"
      },
      {
        "title": "Prescribed Fire RX Chippewa Prairie TNC, Chippewa, Minnesota",
        "id": "EONET_21337",
        "category": "wildfire",
        "date": "2026-07-09T17:06:00Z",
        "lat": 45.1269,
        "lon": -95.9909,
        "sources": [
          "https://irwin.doi.gov/observer/incidents/2025-MNMNS-RX259196"
        ],
        "distance_miles": 17.9,
        "threat_level": "Vicinity"
      },
      {
        "title": "Prescribed Fire RX Terpstra W413-20-01, Lac qui Parle, Minnesota",
        "id": "EONET_21338",
        "category": "wildfire",
        "date": "2026-07-09T17:03:00Z",
        "lat": 45.1061,
        "lon": -96.0154,
        "sources": [
          "https://irwin.doi.gov/observer/incidents/2025-MNMNS-RX259194"
        ],
        "distance_miles": 19.7,
        "threat_level": "Vicinity"
      },
      {
        "title": "Prescribed Fire RX Agassiz W413-21-20, Lac qui Parle, Minnesota",
        "id": "EONET_21235",
        "category": "wildfire",
        "date": "2026-07-09T11:14:00Z",
        "lat": 45.2143,
        "lon": -96.2423,
        "sources": [
          "https://irwin.doi.gov/observer/incidents/2025-MNMNS-RX259094"
        ],
        "distance_miles": 27.2,
        "threat_level": "Vicinity"
      },
      {
        "title": "Prescribed Fire RX Loen, Swift, Minnesota",
        "id": "EONET_21237",
        "category": "wildfire",
        "date": "2026-07-09T10:44:00Z",
        "lat": 45.38,
        "lon": -95.5,
        "sources": [
          "https://irwin.doi.gov/observer/incidents/2025-MNMNS-RX259081"
        ],
        "distance_miles": 11.7,
        "threat_level": "Immediate"
      },
      {
        "title": "Prescribed Fire RX Loen, Swift, Minnesota",
        "id": "EONET_21238",
        "category": "wildfire",
        "date": "2026-07-09T10:43:00Z",
        "lat": 45.38,
        "lon": -95.5,
        "sources": [
          "https://irwin.doi.gov/observer/incidents/2025-MNMNS-RX259080"
        ],
        "distance_miles": 11.7,
        "threat_level": "Immediate"
      },
      {
        "title": "Prescribed Fire RX Chippewa Prairie Unit 7 W413-20-28, Chippewa, Minnesota",
        "id": "EONET_21239",
        "category": "wildfire",
        "date": "2026-07-09T10:39:00Z",
        "lat": 45.139,
        "lon": -96.0134,
        "sources": [
          "https://irwin.doi.gov/observer/incidents/2025-MNMNS-RX259077"
        ],
        "distance_miles": 18.4,
        "threat_level": "Vicinity"
      }
    ],
    "transit": [],
    "amtrak": [],
    "aviation": [],
    "fema": [],
    "disease": []
  },
  "alert_count": 7,
  "conditions": {
    "forecast": {
      "precip_in_24h": 0.0,
      "snow_in_24h": 0.0,
      "high_apparent_temp_f": 81.0,
      "low_apparent_temp_f": 55.0,
      "window": "next 24h",
      "source": "nws_gridpoint"
    },
    "air_quality": {
      "us_aqi": 44,
      "category": "Good",
      "aqi_24h_max": 44,
      "aqi_24h_max_category": "Good",
      "pm2_5": 4.7,
      "pm10": 5.1,
      "ozone": 37.0,
      "nitrogen_dioxide": 12.6,
      "observed_at": "2026-07-23T09:00",
      "source": "Open-Meteo Air Quality (US EPA AQI)"
    }
  },
  "date": "2026-07-23",
  "generated_at": "2026-07-23T09:58:49.898693+00:00"
}
