{
  "schema_version": "1.7",
  "fips": "41049",
  "name": "Morrow County",
  "state": "OR",
  "centroid": {
    "lat": 45.425496,
    "lon": -119.602311
  },
  "alerts": {
    "weather": [],
    "bank_robbery": [],
    "protest": [],
    "utility_outage": [],
    "transit_disruption": [],
    "wildfires": [
      {
        "title": "Incident Complex HAY CREEK COMPLEX, Gilliam, Oregon",
        "id": "EONET_21410",
        "category": "wildfire",
        "date": "2026-07-17T17:16:00Z",
        "lat": 45.266,
        "lon": -120.4358,
        "sources": [
          "https://irwin.doi.gov/observer/incidents/2026-ORPRD-000511"
        ],
        "distance_miles": 42.0,
        "threat_level": "Vicinity"
      },
      {
        "title": "Wildfire 0462, Sherman, Oregon",
        "id": "EONET_21408",
        "category": "wildfire",
        "date": "2026-07-17T00:37:00Z",
        "lat": 45.1843,
        "lon": -120.4953,
        "sources": [
          "https://irwin.doi.gov/observer/incidents/2026-ORPRD-000462"
        ],
        "distance_miles": 46.5,
        "threat_level": "Vicinity"
      },
      {
        "title": "Wildfire 0476 HOAG, Gilliam, Oregon",
        "id": "EONET_21407",
        "category": "wildfire",
        "date": "2026-07-16T20:08:00Z",
        "lat": 45.5622,
        "lon": -120.4051,
        "sources": [
          "https://irwin.doi.gov/observer/incidents/2026-ORPRD-000476"
        ],
        "distance_miles": 40.0,
        "threat_level": "Vicinity"
      },
      {
        "title": "Wildfire Bologna, Grant, Oregon",
        "id": "EONET_21411",
        "category": "wildfire",
        "date": "2026-07-16T17:52:00Z",
        "lat": 44.8612,
        "lon": -119.598,
        "sources": [
          "https://irwin.doi.gov/observer/incidents/2026-ORUMF-000298"
        ],
        "distance_miles": 39.0,
        "threat_level": "Vicinity"
      },
      {
        "title": "Wildfire 0460 HOPKIN, Gilliam, Oregon",
        "id": "EONET_21374",
        "category": "wildfire",
        "date": "2026-07-16T08:04:00Z",
        "lat": 45.3363,
        "lon": -120.2429,
        "sources": [
          "https://irwin.doi.gov/observer/incidents/2026-ORPRD-000460"
        ],
        "distance_miles": 31.7,
        "threat_level": "Vicinity"
      },
      {
        "title": "Wildfire 0450 COVE CREEK, Wheeler, Oregon",
        "id": "EONET_21376",
        "category": "wildfire",
        "date": "2026-07-16T00:08:00Z",
        "lat": 44.9429,
        "lon": -120.3464,
        "sources": [
          "https://irwin.doi.gov/observer/incidents/2026-ORPRD-000450"
        ],
        "distance_miles": 49.2,
        "threat_level": "Vicinity"
      },
      {
        "title": "Wildfire 0449 PORCUPINE RIDGE, Gilliam, Oregon",
        "id": "EONET_21377",
        "category": "wildfire",
        "date": "2026-07-15T22:01:00Z",
        "lat": 45.1889,
        "lon": -120.3503,
        "sources": [
          "https://irwin.doi.gov/observer/incidents/2026-ORPRD-000449"
        ],
        "distance_miles": 39.9,
        "threat_level": "Vicinity"
      }
    ],
    "transit": [],
    "amtrak": [],
    "aviation": [],
    "fema": [],
    "disease": []
  },
  "alert_count": 7,
  "conditions": {
    "forecast": {
      "precip_in_24h": 0.0,
      "snow_in_24h": 0.0,
      "high_apparent_temp_f": 95.0,
      "low_apparent_temp_f": 69.0,
      "window": "next 24h",
      "source": "nws_gridpoint"
    },
    "air_quality": {
      "us_aqi": 98,
      "category": "Moderate",
      "aqi_24h_max": 100,
      "aqi_24h_max_category": "Moderate",
      "pm2_5": 29.5,
      "pm10": 31.8,
      "ozone": 56.0,
      "nitrogen_dioxide": 7.5,
      "observed_at": "2026-07-22T16:00",
      "source": "Open-Meteo Air Quality (US EPA AQI)"
    }
  },
  "date": "2026-07-22",
  "generated_at": "2026-07-22T16:49:01.700246+00:00"
}
